name,latitude,longitude
Belfast,54.597285,-5.93012
Bristol,51.454513,-2.58791
Dundee,56.462018,-2.970721
Leeds,53.800755,-1.549077
Leicester,52.636878,-1.139759
Liverpool,53.408371,-2.991573
London,51.507351,-0.127758
Manchester,53.480759,-2.242631
Newcastle,54.978252,-1.61778
Northampton,52.240477,-0.902656